{
"type": "FeatureCollection",
"name": "scz_laboratorios_clinicos",
"crs": { "type": "name", "properties": { "name": "urn:ogc:def:crs:OGC:1.3:CRS84" } },
"features": [
{ "type": "Feature", "properties": { "id": 1, "gid": 43, "nombre": "LABORATORIO CLÍNICO IRENE", "distrito": 11, "uv": "CIII", "point_x": -63.1775748771, "point_y": -17.787061313399999 }, "geometry": { "type": "Point", "coordinates": [ -63.1775748771, -17.787061313399999 ] } },
{ "type": "Feature", "properties": { "id": 2, "gid": 31, "nombre": "LABORATORIO DE ANÁLISIS CLÍNICO SEBIC", "distrito": 2, "uv": "ET4", "point_x": -63.159354709399999, "point_y": -17.764244933899999 }, "geometry": { "type": "Point", "coordinates": [ -63.159354709399999, -17.764244933899999 ] } },
{ "type": "Feature", "properties": { "id": 3, "gid": 32, "nombre": "LABORATORIO DE ANÁLISIS CLÍNICO HEMO VIRTUAL", "distrito": 1, "uv": "34", "point_x": -63.191411258499997, "point_y": -17.764993587100001 }, "geometry": { "type": "Point", "coordinates": [ -63.191411258499997, -17.764993587100001 ] } },
{ "type": "Feature", "properties": { "id": 4, "gid": 34, "nombre": "LABORATORIO CLÍNICO BRAVO", "distrito": 6, "uv": "152", "point_x": -63.115645186599998, "point_y": -17.759466932300001 }, "geometry": { "type": "Point", "coordinates": [ -63.115645186599998, -17.759466932300001 ] } },
{ "type": "Feature", "properties": { "id": 5, "gid": 40, "nombre": "LABORATORIO CLÍNICO BIO CELL SUCURSAL 1", "distrito": 11, "uv": "CIII", "point_x": -63.173279277799999, "point_y": -17.7842450554 }, "geometry": { "type": "Point", "coordinates": [ -63.173279277799999, -17.7842450554 ] } },
{ "type": "Feature", "properties": { "id": 6, "gid": 2, "nombre": "LABORATORIO DE ANÁLISIS CLÍNICO", "distrito": 11, "uv": "CIII", "point_x": -63.179943788199999, "point_y": -17.7878093699 }, "geometry": { "type": "Point", "coordinates": [ -63.179943788199999, -17.7878093699 ] } },
{ "type": "Feature", "properties": { "id": 7, "gid": 4, "nombre": "LABORATORIO DE ANÁLISIS CLÍNICO BIOGENETIC", "distrito": 11, "uv": "CI", "point_x": -63.187381082000002, "point_y": -17.781213108399999 }, "geometry": { "type": "Point", "coordinates": [ -63.187381082, -17.781213108399999 ] } },
{ "type": "Feature", "properties": { "id": 8, "gid": 5, "nombre": "LABORATORIO DE ANÁLISIS CLÍNICO DRA LIDIA PAZ BURGOS", "distrito": 11, "uv": "CI", "point_x": -63.1846428323, "point_y": -17.779055434 }, "geometry": { "type": "Point", "coordinates": [ -63.1846428323, -17.779055434 ] } },
{ "type": "Feature", "properties": { "id": 9, "gid": 6, "nombre": "LABORATORIO DE ANÁLISIS CLÍNICO IBC SUCURSAL 2", "distrito": 11, "uv": "7", "point_x": -63.179007490899998, "point_y": -17.795032227099998 }, "geometry": { "type": "Point", "coordinates": [ -63.179007490899998, -17.795032227099998 ] } },
{ "type": "Feature", "properties": { "id": 10, "gid": 8, "nombre": "LABORATORIO DE ANÁLISIS CLÍNICO HEMO VIRTUAL SRL", "distrito": 11, "uv": "CI", "point_x": -63.187137787200001, "point_y": -17.783138605000001 }, "geometry": { "type": "Point", "coordinates": [ -63.187137787200001, -17.783138605 ] } },
{ "type": "Feature", "properties": { "id": 11, "gid": 15, "nombre": "LABORATORIO DE ANÁLISIS CLÍNICO AFA", "distrito": 7, "uv": "89", "point_x": -63.1188226955, "point_y": -17.799904748700001 }, "geometry": { "type": "Point", "coordinates": [ -63.1188226955, -17.799904748700001 ] } },
{ "type": "Feature", "properties": { "id": 12, "gid": 9, "nombre": "LABORATORIO IBC SUCURSAL EQUIPETROL", "distrito": 1, "uv": "59", "point_x": -63.197839589600001, "point_y": -17.760006816099999 }, "geometry": { "type": "Point", "coordinates": [ -63.197839589600001, -17.760006816099999 ] } },
{ "type": "Feature", "properties": { "id": 13, "gid": 11, "nombre": "LABORATORIO DR ZUNA CENTRO", "distrito": 11, "uv": "CI", "point_x": -63.184896289599997, "point_y": -17.777816879300001 }, "geometry": { "type": "Point", "coordinates": [ -63.184896289599997, -17.777816879300001 ] } },
{ "type": "Feature", "properties": { "id": 14, "gid": 14, "nombre": "LABORATORIO BIO-CELL", "distrito": 4, "uv": "27", "point_x": -63.1810652275, "point_y": -17.805217048300001 }, "geometry": { "type": "Point", "coordinates": [ -63.1810652275, -17.805217048300001 ] } },
{ "type": "Feature", "properties": { "id": 15, "gid": 17, "nombre": "LABORATORIO BIO-MASTER", "distrito": 11, "uv": "12", "point_x": -63.1940704668, "point_y": -17.781450640199999 }, "geometry": { "type": "Point", "coordinates": [ -63.1940704668, -17.781450640199999 ] } },
{ "type": "Feature", "properties": { "id": 16, "gid": 16, "nombre": "LABORATORIO DE ANÁLISIS CLÍNICO IBC SUCURSAL BENI", "distrito": 2, "uv": "37", "point_x": -63.172185269800003, "point_y": -17.7551229434 }, "geometry": { "type": "Point", "coordinates": [ -63.172185269800003, -17.7551229434 ] } },
{ "type": "Feature", "properties": { "id": 17, "gid": 13, "nombre": "LABORATORIO CATEDRAL", "distrito": 11, "uv": "CI", "point_x": -63.183791216099998, "point_y": -17.776597679399998 }, "geometry": { "type": "Point", "coordinates": [ -63.183791216099998, -17.776597679399998 ] } },
{ "type": "Feature", "properties": { "id": 18, "gid": 3, "nombre": "LABORATORIO DE ANÁLISIS CLÍNICO DR. ZUNA", "distrito": 2, "uv": "16", "point_x": -63.170764241500002, "point_y": -17.7686372322 }, "geometry": { "type": "Point", "coordinates": [ -63.170764241500002, -17.7686372322 ] } },
{ "type": "Feature", "properties": { "id": 19, "gid": 37, "nombre": "LABORATORIO CLÍNICO BIOCRUZ", "distrito": 11, "uv": "CI", "point_x": -63.187165507700001, "point_y": -17.782578172800001 }, "geometry": { "type": "Point", "coordinates": [ -63.187165507700001, -17.782578172800001 ] } },
{ "type": "Feature", "properties": { "id": 20, "gid": 39, "nombre": "LABORATORIO CLÍNICO INMUNOLAB", "distrito": 11, "uv": "7", "point_x": -63.178992, "point_y": -17.792223 }, "geometry": { "type": "Point", "coordinates": [ -63.178992, -17.792223 ] } },
{ "type": "Feature", "properties": { "id": 21, "gid": 10, "nombre": "LABORATORIO BIO-CELL CENTRAL", "distrito": 11, "uv": "11", "point_x": -63.188425842699999, "point_y": -17.787846583899999 }, "geometry": { "type": "Point", "coordinates": [ -63.188425842699999, -17.787846583899999 ] } },
{ "type": "Feature", "properties": { "id": 22, "gid": 1, "nombre": "LABORATORIO DE ANÁLISIS CLÍNICO GÓMEZ", "distrito": 4, "uv": "26", "point_x": -63.180531166199998, "point_y": -17.808977675200001 }, "geometry": { "type": "Point", "coordinates": [ -63.180531166199998, -17.808977675200001 ] } },
{ "type": "Feature", "properties": { "id": 23, "gid": 36, "nombre": "LABORATORIO CLÍNICO BIO FLORES", "distrito": 9, "uv": "131", "point_x": -63.194323877599999, "point_y": -17.858605279799999 }, "geometry": { "type": "Point", "coordinates": [ -63.194323877599999, -17.858605279799999 ] } },
{ "type": "Feature", "properties": { "id": 24, "gid": 38, "nombre": "LABORATORIO CLÍNICO HEMO VIRTUAL SRL", "distrito": 11, "uv": "CI", "point_x": -63.188284453500003, "point_y": -17.778970617799999 }, "geometry": { "type": "Point", "coordinates": [ -63.188284453500003, -17.778970617799999 ] } },
{ "type": "Feature", "properties": { "id": 25, "gid": 18, "nombre": "LABORATORIO HEMO TEST SRL", "distrito": 2, "uv": "17", "point_x": -63.167531892699998, "point_y": -17.762258611699998 }, "geometry": { "type": "Point", "coordinates": [ -63.167531892699998, -17.762258611699998 ] } },
{ "type": "Feature", "properties": { "id": 26, "gid": 42, "nombre": "LABORATORIO DE ANÁLISIS CLÍNICO ORQUERA", "distrito": 1, "uv": "53", "point_x": -63.206841872799998, "point_y": -17.795194602199999 }, "geometry": { "type": "Point", "coordinates": [ -63.206841872799998, -17.795194602199999 ] } },
{ "type": "Feature", "properties": { "id": 27, "gid": 19, "nombre": "LABORATORIO RIDES", "distrito": 11, "uv": "13", "point_x": -63.186422405499997, "point_y": -17.775637079199999 }, "geometry": { "type": "Point", "coordinates": [ -63.186422405499997, -17.775637079199999 ] } },
{ "type": "Feature", "properties": { "id": 28, "gid": 12, "nombre": "LABORATORIO DE ANÁLISIS CLÍNICO ROCHA", "distrito": 4, "uv": "27", "point_x": -63.189714074500003, "point_y": -17.810514614399999 }, "geometry": { "type": "Point", "coordinates": [ -63.189714074500003, -17.810514614399999 ] } },
{ "type": "Feature", "properties": { "id": 29, "gid": 20, "nombre": "LABORATORIO DE ANÁLISIS CLÍNICO FLEMING", "distrito": 11, "uv": "CIII", "point_x": -63.175968474599998, "point_y": -17.784540936799999 }, "geometry": { "type": "Point", "coordinates": [ -63.175968474599998, -17.784540936799999 ] } },
{ "type": "Feature", "properties": { "id": 30, "gid": 21, "nombre": "LABORATORIO DE ANÁLISIS CLÍNICO", "distrito": 9, "uv": "107", "point_x": -63.180966425900003, "point_y": -17.8288716076 }, "geometry": { "type": "Point", "coordinates": [ -63.180966425900003, -17.8288716076 ] } },
{ "type": "Feature", "properties": { "id": 31, "gid": 22, "nombre": "LABORATORIO BIO CELL SUCURSAL 2", "distrito": 2, "uv": "18", "point_x": -63.158339066400004, "point_y": -17.767879366 }, "geometry": { "type": "Point", "coordinates": [ -63.158339066400004, -17.767879366 ] } },
{ "type": "Feature", "properties": { "id": 32, "gid": 23, "nombre": "LABORATORIO ZUNA SUCURSAL AVENIDA JAPON", "distrito": 2, "uv": "40", "point_x": -63.155717067200001, "point_y": -17.768604573200001 }, "geometry": { "type": "Point", "coordinates": [ -63.155717067200001, -17.768604573200001 ] } },
{ "type": "Feature", "properties": { "id": 33, "gid": 25, "nombre": "LABORATORIO CONSULAB", "distrito": 7, "uv": "87", "point_x": -63.1239883987, "point_y": -17.792652416700001 }, "geometry": { "type": "Point", "coordinates": [ -63.1239883987, -17.792652416700001 ] } },
{ "type": "Feature", "properties": { "id": 34, "gid": 27, "nombre": "LABORATORIO HEMO VIRTUAL SRL", "distrito": 1, "uv": "34", "point_x": -63.193579520699998, "point_y": -17.7635994798 }, "geometry": { "type": "Point", "coordinates": [ -63.193579520699998, -17.7635994798 ] } },
{ "type": "Feature", "properties": { "id": 35, "gid": 33, "nombre": "LABORATORIO BRAVO A", "distrito": 6, "uv": "152", "point_x": -63.115523148999998, "point_y": -17.760398006399999 }, "geometry": { "type": "Point", "coordinates": [ -63.115523149, -17.760398006399999 ] } },
{ "type": "Feature", "properties": { "id": 36, "gid": 41, "nombre": "LABORATORIO JESUS MARIA", "distrito": 5, "uv": "68", "point_x": -63.170195952, "point_y": -17.736314848 }, "geometry": { "type": "Point", "coordinates": [ -63.170195952, -17.736314848 ] } },
{ "type": "Feature", "properties": { "id": 37, "gid": 44, "nombre": "LABORATORIO URBAL", "distrito": 11, "uv": "2", "point_x": -63.174157343700003, "point_y": -17.775160271699999 }, "geometry": { "type": "Point", "coordinates": [ -63.174157343700003, -17.775160271699999 ] } },
{ "type": "Feature", "properties": { "id": 38, "gid": 46, "nombre": "LABORATORIO SAN JORGE", "distrito": 11, "uv": "CI", "point_x": -63.186342274700003, "point_y": -17.7802469467 }, "geometry": { "type": "Point", "coordinates": [ -63.186342274700003, -17.7802469467 ] } },
{ "type": "Feature", "properties": { "id": 39, "gid": 51, "nombre": "LABORATORIO SAN JUAN", "distrito": 11, "uv": "CI", "point_x": -63.185199112600003, "point_y": -17.778711434200002 }, "geometry": { "type": "Point", "coordinates": [ -63.185199112600003, -17.778711434200002 ] } },
{ "type": "Feature", "properties": { "id": 40, "gid": 52, "nombre": "LABORATORIO JOSE MARIA", "distrito": 4, "uv": "28", "point_x": -63.1907261156, "point_y": -17.8038701284 }, "geometry": { "type": "Point", "coordinates": [ -63.1907261156, -17.8038701284 ] } },
{ "type": "Feature", "properties": { "id": 41, "gid": 53, "nombre": "LABORATORIO QUIMICO UAGRM", "distrito": 1, "uv": "32", "point_x": -63.196316541100003, "point_y": -17.773394828400001 }, "geometry": { "type": "Point", "coordinates": [ -63.196316541100003, -17.773394828400001 ] } },
{ "type": "Feature", "properties": { "id": 42, "gid": 24, "nombre": "LABORATORIO DE ANÁLISIS CLÍNICO ROSALES", "distrito": 4, "uv": "51", "point_x": -63.199673358799998, "point_y": -17.814255787099999 }, "geometry": { "type": "Point", "coordinates": [ -63.199673358799998, -17.814255787099999 ] } },
{ "type": "Feature", "properties": { "id": 43, "gid": 28, "nombre": "LABORATORIO DE ANÁLISIS CLÍNICO CENETROP", "distrito": 1, "uv": "32", "point_x": -63.193963945599997, "point_y": -17.7789108427 }, "geometry": { "type": "Point", "coordinates": [ -63.193963945599997, -17.7789108427 ] } },
{ "type": "Feature", "properties": { "id": 44, "gid": 29, "nombre": "LABORATORIO DE ANÁLISIS CLÍNICO CIBA", "distrito": 11, "uv": "CI", "point_x": -63.186219063899998, "point_y": -17.779704735700001 }, "geometry": { "type": "Point", "coordinates": [ -63.186219063899998, -17.779704735700001 ] } },
{ "type": "Feature", "properties": { "id": 45, "gid": 48, "nombre": "LABORATORIO CLÍNICO JOSE OBRERO", "distrito": 7, "uv": "89", "point_x": -63.118841459000002, "point_y": -17.7997420387 }, "geometry": { "type": "Point", "coordinates": [ -63.118841459, -17.7997420387 ] } },
{ "type": "Feature", "properties": { "id": 46, "gid": 30, "nombre": "LABORATORIO DE ANÁLISIS CLÍNICO ENDOGENETICA SANTA CRUZ  (LES)", "distrito": 11, "uv": "CIV", "point_x": -63.187017271400002, "point_y": -17.785190527800001 }, "geometry": { "type": "Point", "coordinates": [ -63.187017271400002, -17.785190527800001 ] } },
{ "type": "Feature", "properties": { "id": 47, "gid": 50, "nombre": "LABORATORIO CLÍNICO IBC CENTRAL", "distrito": 11, "uv": "CI", "point_x": -63.185451707799999, "point_y": -17.776641308399999 }, "geometry": { "type": "Point", "coordinates": [ -63.185451707799999, -17.776641308399999 ] } },
{ "type": "Feature", "properties": { "id": 48, "gid": 45, "nombre": "LABORATORIO DE ANÁLISIS CLÍNICO BIOSALUD", "distrito": 11, "uv": "CI", "point_x": -63.185372, "point_y": -17.779296 }, "geometry": { "type": "Point", "coordinates": [ -63.185372, -17.779296 ] } },
{ "type": "Feature", "properties": { "id": 49, "gid": 26, "nombre": "LABORATORIO DE ANÁLISIS CLÍNICO LABSYSTEMS", "distrito": 2, "uv": "41", "point_x": -63.153524459899998, "point_y": -17.7750509852 }, "geometry": { "type": "Point", "coordinates": [ -63.153524459899998, -17.7750509852 ] } },
{ "type": "Feature", "properties": { "id": 50, "gid": 47, "nombre": "LABORATORIO OMEGA", "distrito": 11, "uv": "13", "point_x": -63.188935841300001, "point_y": -17.779358659100001 }, "geometry": { "type": "Point", "coordinates": [ -63.188935841300001, -17.779358659100001 ] } },
{ "type": "Feature", "properties": { "id": 51, "gid": 7, "nombre": "LABORATORIO DE ANÁLISIS CLÍNICO DRA LIDIA PAZ BURGOS", "distrito": 2, "uv": "16", "point_x": -63.170215738899998, "point_y": -17.767227653199999 }, "geometry": { "type": "Point", "coordinates": [ -63.170215738899998, -17.767227653199999 ] } },
{ "type": "Feature", "properties": { "id": 52, "gid": 49, "nombre": "LABORATORIO DE ANÁLISIS CLÍNICO SANTA LINA", "distrito": 12, "uv": "170", "point_x": -63.168523295, "point_y": -17.843597837299999 }, "geometry": { "type": "Point", "coordinates": [ -63.168523295, -17.843597837299999 ] } },
{ "type": "Feature", "properties": { "id": 53, "gid": 35, "nombre": "LABORATORIO DE ANÁLISIS CLÍNICO INGE LAB", "distrito": 8, "uv": "149", "point_x": -63.131626788600002, "point_y": -17.825602883599998 }, "geometry": { "type": "Point", "coordinates": [ -63.131626788600002, -17.825602883599998 ] } }
]
}
